[{"X":1,"uniqueForeignRevised":"Prince Rupert, BC,Canada","lon":-130.3208,"lat":54.315,"geoAddress":"prince rupert, bc, canada","anclat":61.2167,"anclon":-149.9,"val":48.0481},{"X":2,"uniqueForeignRevised":"Vancouver, BC,Canada","lon":-123.1207,"lat":49.2827,"geoAddress":"vancouver, bc, canada","anclat":61.2167,"anclon":-149.9,"val":43.5964},{"X":3,"uniqueForeignRevised":"Pusan,South Korea","lon":129.0756,"lat":35.1796,"geoAddress":"busan, south korea","anclat":61.2167,"anclon":-149.9,"val":31.1205},{"X":4,"uniqueForeignRevised":"Yura,Japan","lon":135.1183,"lat":33.9592,"geoAddress":"yura, hidaka district, wakayama prefecture, japan","anclat":61.2167,"anclon":-149.9,"val":30.0409},{"X":5,"uniqueForeignRevised":"Sendai,Japan","lon":140.8694,"lat":38.2682,"geoAddress":"sendai, miyagi prefecture, japan","anclat":61.2167,"anclon":-149.9,"val":33.8528},{"X":6,"uniqueForeignRevised":"Sao Paulo,Brazil","lon":-46.6333,"lat":-23.5505,"geoAddress":"são paulo, state of são paulo, brazil","anclat":61.2167,"anclon":-149.9,"val":20.8332},{"X":7,"uniqueForeignRevised":"Nanking,China ","lon":118.7969,"lat":32.0603,"geoAddress":"nanjing, jiangsu, china","anclat":61.2167,"anclon":-149.9,"val":28.3611},{"X":8,"uniqueForeignRevised":"Shanghai,China ","lon":121.4737,"lat":31.2304,"geoAddress":"shanghai, china","anclat":61.2167,"anclon":-149.9,"val":27.627},{"X":9,"uniqueForeignRevised":"Yosu,South Korea","lon":127.6622,"lat":34.7604,"geoAddress":"yeosu-si, jeollanam-do, south korea","anclat":61.2167,"anclon":-149.9,"val":30.7497},{"X":10,"uniqueForeignRevised":"Luda,China ","lon":121.6147,"lat":38.914,"geoAddress":"dalian, liaoning, china","anclat":61.2167,"anclon":-149.9,"val":34.424},{"X":11,"uniqueForeignRevised":"Shiogama,Japan","lon":141.022,"lat":38.3144,"geoAddress":"shiogama, miyagi prefecture, japan","anclat":61.2167,"anclon":-149.9,"val":33.8936},{"X":12,"uniqueForeignRevised":"Cheju,South Korea","lon":126.4983,"lat":33.489,"geoAddress":"jeju-do, south korea","anclat":61.2167,"anclon":-149.9,"val":29.625},{"X":13,"uniqueForeignRevised":"Singapore,Singapore","lon":103.8198,"lat":1.3521,"geoAddress":"singapore","anclat":61.2167,"anclon":-149.9,"val":1.1961},{"X":14,"uniqueForeignRevised":"Kwangyang,South Korea","lon":127.6959,"lat":34.9407,"geoAddress":"gwangyang-si, jeollanam-do, south korea","anclat":61.2167,"anclon":-149.9,"val":30.9092},{"X":15,"uniqueForeignRevised":"Ulsan,South Korea","lon":129.3114,"lat":35.5384,"geoAddress":"ulsan, south korea","anclat":61.2167,"anclon":-149.9,"val":31.4379},{"X":16,"uniqueForeignRevised":"Puerto Mexico,Mexico","lon":-99.1332,"lat":19.4326,"geoAddress":"mexico city, cdmx, mexico","anclat":61.2167,"anclon":-149.9,"val":17.1904},{"X":17,"uniqueForeignRevised":"Yokohama,Japan","lon":139.638,"lat":35.4437,"geoAddress":"yokohama, kanagawa prefecture, japan","anclat":61.2167,"anclon":-149.9,"val":31.3541},{"X":18,"uniqueForeignRevised":"Xingang,China","lon":117.7428,"lat":38.9832,"geoAddress":"binhai, tianjin, china","anclat":61.2167,"anclon":-149.9,"val":34.4853},{"X":19,"uniqueForeignRevised":"Wuhu,China ","lon":118.4329,"lat":31.3529,"geoAddress":"wuhu, anhui, china","anclat":61.2167,"anclon":-149.9,"val":27.7353},{"X":20,"uniqueForeignRevised":"Tanjung Pelepas,Malaysia","lon":103.5724,"lat":1.3836,"geoAddress":"lebuhraya tanjung pelepas, 81550 gelang patah, johor, malaysia","anclat":61.2167,"anclon":-149.9,"val":1.2239},{"X":21,"uniqueForeignRevised":"Calais,France","lon":1.8587,"lat":50.9513,"geoAddress":"calais, france","anclat":61.2167,"anclon":-149.9,"val":45.0724},{"X":22,"uniqueForeignRevised":"Villequier,France","lon":0.6721,"lat":49.513,"geoAddress":"76490 villequier, france","anclat":61.2167,"anclon":-149.9,"val":43.8001},{"X":23,"uniqueForeignRevised":"Dongguan,China ","lon":113.7518,"lat":23.0207,"geoAddress":"dongguan, guangdong, china","anclat":61.2167,"anclon":-149.9,"val":20.3645},{"X":24,"uniqueForeignRevised":"Chibako,Japan","lon":140.1233,"lat":35.6051,"geoAddress":"chiba prefecture, japan","anclat":61.2167,"anclon":-149.9,"val":31.4969},{"X":25,"uniqueForeignRevised":"Wakayama,Japan","lon":135.1675,"lat":34.226,"geoAddress":"wakayama prefecture, japan","anclat":61.2167,"anclon":-149.9,"val":30.2769},{"X":26,"uniqueForeignRevised":"Laem Chabang,Thailand","lon":100.9158,"lat":13.1041,"geoAddress":"laem chabang, bang lamung district, chon buri, thailand","anclat":61.2167,"anclon":-149.9,"val":11.5921},{"X":27,"uniqueForeignRevised":"Surabaya,Indonesia","lon":112.7521,"lat":-7.2575,"geoAddress":"surabaya, surabaya city, east java, indonesia","anclat":61.2167,"anclon":-149.9,"val":6.4201},{"X":28,"uniqueForeignRevised":"Tiksi,Russia","lon":128.8645,"lat":71.6375,"geoAddress":"tiksi, sakha republic, russia, 678400","anclat":61.2167,"anclon":-149.9,"val":63.3718},{"X":29,"uniqueForeignRevised":"Qinhuangdao Gang,China ","lon":119.5745,"lat":39.9422,"geoAddress":"xi gang lu, haigang qu, qinhuangdao shi, hebei sheng, china, 066004","anclat":61.2167,"anclon":-149.9,"val":35.3336},{"X":30,"uniqueForeignRevised":"Masan,South Korea","lon":128.5814,"lat":35.2135,"geoAddress":"masan, south korea","anclat":61.2167,"anclon":-149.9,"val":31.1505},{"X":31,"uniqueForeignRevised":"Mizusima,Japan","lon":136.9015,"lat":36.6387,"geoAddress":"mizushima, oyabe, toyama prefecture 932-0102, japan","anclat":61.2167,"anclon":-149.9,"val":32.4113},{"X":32,"uniqueForeignRevised":"Balboa,Panama","lon":-79.5632,"lat":8.9614,"geoAddress":"balboa, panama city, panama","anclat":61.2167,"anclon":-149.9,"val":7.9274},{"X":33,"uniqueForeignRevised":"White Rock, BC,Canada","lon":-122.803,"lat":49.0253,"geoAddress":"white rock, bc, canada","anclat":61.2167,"anclon":-149.9,"val":43.3687},{"X":34,"uniqueForeignRevised":"Kawasaki,Japan","lon":139.7024,"lat":35.5298,"geoAddress":"kawasaki, kanagawa prefecture, japan","anclat":61.2167,"anclon":-149.9,"val":31.4303},{"X":35,"uniqueForeignRevised":"Mongstad,Norway","lon":5.033,"lat":60.8113,"geoAddress":"5954 mongstad, norway","anclat":61.2167,"anclon":-149.9,"val":53.7948},{"X":36,"uniqueForeignRevised":"Zhenjiang,China ","lon":119.4258,"lat":32.1878,"geoAddress":"zhenjiang, jiangsu, china","anclat":61.2167,"anclon":-149.9,"val":28.4739},{"X":37,"uniqueForeignRevised":"Okinawa Island,Japan","lon":127.9454,"lat":26.5013,"geoAddress":"okinawa island, ginoza, okinawa prefecture 904-1304, japan","anclat":61.2167,"anclon":-149.9,"val":23.4435}]
